[
  {
    "hospital": {
      "hospital_id": "453e38c7-a1cf-472f-914a-6a5c63e2d33a",
      "name": "Manipal ",
      "location": {
        "latitude": 12.9313323,
        "longitude": 77.6244723,
        "address": "16th A Main Road",
        "city": "Bengaluru",
        "state": "Karnataka",
        "country": "India",
        "postal_code": "560034"
      },
      "contact": {
        "phone": "946194949",
        "email": "hosp@gmail.com",
        "website": "",
        "emergency_phone": ""
      },
      "services": [
        "emergency",
        "ambulance"
      ],
      "emergency_capacity": 10,
      "verification_status": "verified",
      "timestamp": "2025-04-19T05:30:11.665Z",
      "admin_id": null
    },
    "block_id": "0x26942df32327a6a5433af80d7d1914dd6262c12c8e8a7fe0e5175935ff9cf778",
    "timestamp": "2025-04-19T05:30:11.665Z"
  },
  {
    "hospital": {
      "hospital_id": "9da3a31c-c10c-436c-9696-6de049e01af6",
      "name": "Sakra",
      "location": {
        "latitude": 12.9313619,
        "longitude": 77.6244893,
        "address": "17th A Main Road",
        "city": "Bengaluru",
        "state": "Karnataka",
        "country": "India",
        "postal_code": "560035"
      },
      "contact": {
        "phone": "956167697",
        "email": "hosp1@gmail.com",
        "website": "",
        "emergency_phone": ""
      },
      "services": [
        "emergency",
        "ambulance",
        "cardiology",
        "organ_donor",
        "surgery",
        "pediatrics"
      ],
      "emergency_capacity": 10,
      "verification_status": "verified",
      "timestamp": "2025-04-19T05:57:20.577Z",
      "admin_id": null
    },
    "block_id": "0x32680df2db18a8442507e0b3b64b995b12d72ac3d3a237fd6319e0ab2a8ba537",
    "timestamp": "2025-04-19T05:57:20.577Z"
  },
  {
    "hospital": {
      "hospital_id": "0837f6c5-7028-4808-9445-3f7ef27cddee",
      "name": "Apollo",
      "location": {
        "latitude": 37.785834,
        "longitude": -122.406417,
        "address": "Ellis St",
        "city": "San Francisco",
        "state": "CA",
        "country": "United States",
        "postal_code": "94108"
      },
      "contact": {
        "phone": "82928392839",
        "email": "hosp2@gmail.com",
        "website": "",
        "emergency_phone": ""
      },
      "services": [
        "emergency",
        "ambulance",
        "surgery",
        "organ_donor",
        "cardiology"
      ],
      "emergency_capacity": 10,
      "verification_status": "verified",
      "timestamp": "2025-04-19T07:19:11.488Z",
      "admin_id": null
    },
    "block_id": "0xaab52c0d8eec46020782ecc6c04420688513843c26785f6f2a00f427a7a7478e",
    "timestamp": "2025-04-19T07:19:11.488Z"
  }
]